header: 
  seq: 1
  stamp: 
    secs: 1674140037
    nsecs: 395674943
  frame_id: "dont_know_which_frame_to_use?"
cones: 
  - 
    x: 4.61468832279
    y: -0.123463330885
    z: -1.29977132747
    color: 2
    covariance: [0.0, 0.0, 0.0, 0.0]
    probability: 1.0
    id: 1
  - 
    x: 4.60092788151
    y: -2.48417342847
    z: -1.34080898704
    color: 2
    covariance: [0.0, 0.0, 0.0, 0.0]
    probability: 0.999457716942
    id: 1
  - 
    x: 3.05317697447
    y: 1.75338437371
    z: -1.15279263992
    color: 2
    covariance: [0.0, 0.0, 0.0, 0.0]
    probability: 0.9990234375
    id: 1
  - 
    x: 5.78623384462
    y: -1.14094953535
    z: -1.3644740494
    color: 1
    covariance: [0.0, 0.0, 0.0, 0.0]
    probability: 1.0
    id: 1
  - 
    x: 6.89844325781
    y: -2.08310671414
    z: -1.46104120338
    color: 1
    covariance: [0.0, 0.0, 0.0, 0.0]
    probability: 0.99951171875
    id: 1
  - 
    x: 5.14842283183
    y: 0.888079436541
    z: -1.30000296562
    color: 1
    covariance: [0.0, 0.0, 0.0, 0.0]
    probability: 0.99951171875
    id: 1
  - 
    x: 5.3128614986
    y: -2.51168493912
    z: -1.36112388339
    color: 1
    covariance: [0.0, 0.0, 0.0, 0.0]
    probability: 0.99951171875
    id: 1
  - 
    x: 7.17542309384
    y: 0.850007394815
    z: -1.45677199168
    color: 1
    covariance: [0.0, 0.0, 0.0, 0.0]
    probability: 0.99853515625
    id: 1
  - 
    x: 3.8000090625
    y: -2.32911467522
    z: -1.28675666735
    color: 1
    covariance: [0.0, 0.0, 0.0, 0.0]
    probability: 0.998151242733
    id: 1
  - 
    x: 3.64108404722
    y: 0.936398485219
    z: -1.24851405417
    color: 3
    covariance: [0.0, 0.0, 0.0, 0.0]
    probability: 0.999284029007
    id: 1
  - 
    x: 4.09812798615
    y: -1.05730064215
    z: -1.26509635636
    color: 3
    covariance: [0.0, 0.0, 0.0, 0.0]
    probability: 0.9990234375
    id: 1
---
header: 
  seq: 2
  stamp: 
    secs: 1674140037
    nsecs: 473021030
  frame_id: "dont_know_which_frame_to_use?"
cones: 
  - 
    x: 4.6294594106
    y: -0.123740824172
    z: -1.30392788216
    color: 2
    covariance: [0.0, 0.0, 0.0, 0.0]
    probability: 1.0
    id: 1
  - 
    x: 3.07756447671
    y: 1.76819560824
    z: -1.16093513704
    color: 2
    covariance: [0.0, 0.0, 0.0, 0.0]
    probability: 0.99951171875
    id: 1
  - 
    x: 4.61005227019
    y: -2.49032159065
    z: -1.342791827
    color: 2
    covariance: [0.0, 0.0, 0.0, 0.0]
    probability: 0.999454855919
    id: 1
  - 
    x: 5.82124034472
    y: -1.14785340648
    z: -1.37271374575
    color: 1
    covariance: [0.0, 0.0, 0.0, 0.0]
    probability: 1.0
    id: 1
  - 
    x: 6.91669627605
    y: -2.08888097797
    z: -1.46411860718
    color: 1
    covariance: [0.0, 0.0, 0.0, 0.0]
    probability: 0.99951171875
    id: 1
  - 
    x: 5.2546450544
    y: -2.48523843582
    z: -1.34540217094
    color: 1
    covariance: [0.0, 0.0, 0.0, 0.0]
    probability: 0.99951171875
    id: 1
  - 
    x: 5.17530757258
    y: 0.893325798596
    z: -1.30633658032
    color: 1
    covariance: [0.0, 0.0, 0.0, 0.0]
    probability: 0.99951171875
    id: 1
  - 
    x: 7.05883409536
    y: 0.836980288484
    z: -1.43669783598
    color: 1
    covariance: [0.0, 0.0, 0.0, 0.0]
    probability: 0.99853515625
    id: 1
  - 
    x: 3.79195972776
    y: -2.32492703081
    z: -1.28408003572
    color: 1
    covariance: [0.0, 0.0, 0.0, 0.0]
    probability: 0.998091697693
    id: 1
  - 
    x: 3.61647799059
    y: 0.92962939598
    z: -1.24035245854
    color: 3
    covariance: [0.0, 0.0, 0.0, 0.0]
    probability: 0.999349951744
    id: 1
  - 
    x: 4.11134572099
    y: -1.0599821462
    z: -1.26842474834
    color: 3
    covariance: [0.0, 0.0, 0.0, 0.0]
    probability: 0.9990234375
    id: 1
---
header: 
  seq: 3
  stamp: 
    secs: 1674140037
    nsecs: 519606113
  frame_id: "dont_know_which_frame_to_use?"
cones: 
  - 
    x: 15.9762603055
    y: 9.82590347581
    z: 1.30658953054
    color: 2
    covariance: [0.0, 0.0, 0.0, 0.0]
    probability: 0.9990234375
    id: 1
  - 
    x: 6.7484352475
    y: 4.19303536982
    z: 0.0296960088931
    color: 2
    covariance: [0.0, 0.0, 0.0, 0.0]
    probability: 0.9990234375
    id: 1
  - 
    x: 13.66454613
    y: 7.72449788497
    z: 0.881291981289
    color: 2
    covariance: [0.0, 0.0, 0.0, 0.0]
    probability: 0.99853515625
    id: 1
  - 
    x: 9.43194189443
    y: 1.01643651243
    z: 0.316154184828
    color: 2
    covariance: [0.0, 0.0, 0.0, 0.0]
    probability: 0.99853515625
    id: 1
  - 
    x: 19.3052203763
    y: 4.59436326897
    z: 1.52364306704
    color: 1
    covariance: [0.0, 0.0, 0.0, 0.0]
    probability: 1.0
    id: 1
---
header: 
  seq: 4
  stamp: 
    secs: 1674140037
    nsecs: 577296018
  frame_id: "dont_know_which_frame_to_use?"
cones: 
  - 
    x: 4.63058786236
    y: -0.122352790366
    z: -1.30434539438
    color: 2
    covariance: [0.0, 0.0, 0.0, 0.0]
    probability: 1.0
    id: 1
  - 
    x: 3.04990302955
    y: 1.75081120039
    z: -1.15168674413
    color: 2
    covariance: [0.0, 0.0, 0.0, 0.0]
    probability: 0.99951171875
    id: 1
  - 
    x: 4.59921028367
    y: -2.48509165537
    z: -1.34029778646
    color: 2
    covariance: [0.0, 0.0, 0.0, 0.0]
    probability: 0.999452054501
    id: 1
  - 
    x: 5.813727074
    y: -1.14621754741
    z: -1.37092383767
    color: 1
    covariance: [0.0, 0.0, 0.0, 0.0]
    probability: 1.0
    id: 1
  - 
    x: 6.93256373842
    y: -2.0945429323
    z: -1.46887880031
    color: 1
    covariance: [0.0, 0.0, 0.0, 0.0]
    probability: 0.99951171875
    id: 1
  - 
    x: 5.12760136695
    y: 0.884176824753
    z: -1.29357182529
    color: 1
    covariance: [0.0, 0.0, 0.0, 0.0]
    probability: 0.99951171875
    id: 1
  - 
    x: 5.26270245813
    y: -2.49077943303
    z: -1.34809392797
    color: 1
    covariance: [0.0, 0.0, 0.0, 0.0]
    probability: 0.99951171875
    id: 1
  - 
    x: 7.09625453621
    y: 0.84109303528
    z: -1.44272278664
    color: 1
    covariance: [0.0, 0.0, 0.0, 0.0]
    probability: 0.99853515625
    id: 1
  - 
    x: 3.79975068161
    y: -2.32959050822
    z: -1.28696322153
    color: 1
    covariance: [0.0, 0.0, 0.0, 0.0]
    probability: 0.998061418533
    id: 1
  - 
    x: 3.65014522208
    y: 0.939037286259
    z: -1.25100775199
    color: 3
    covariance: [0.0, 0.0, 0.0, 0.0]
    probability: 0.999294161797
    id: 1
  - 
    x: 4.14612550422
    y: -1.06992591101
    z: -1.27932006423
    color: 3
    covariance: [0.0, 0.0, 0.0, 0.0]
    probability: 0.99877256155
    id: 1
---
header: 
  seq: 5
  stamp: 
    secs: 1674140037
    nsecs: 681147098
  frame_id: "dont_know_which_frame_to_use?"
cones: 
  - 
    x: 4.62105761913
    y: -0.123270926337
    z: -1.30152554778
    color: 2
    covariance: [0.0, 0.0, 0.0, 0.0]
    probability: 1.0
    id: 1
  - 
    x: 3.06970689795
    y: 1.76336078102
    z: -1.15844132861
    color: 2
    covariance: [0.0, 0.0, 0.0, 0.0]
    probability: 0.99951171875
    id: 1
  - 
    x: 4.58825552108
    y: -2.47871824104
    z: -1.33791294826
    color: 2
    covariance: [0.0, 0.0, 0.0, 0.0]
    probability: 0.999467492104
    id: 1
  - 
    x: 5.81913841566
    y: -1.14700493094
    z: -1.37181830668
    color: 1
    covariance: [0.0, 0.0, 0.0, 0.0]
    probability: 1.0
    id: 1
  - 
    x: 6.9303816427
    y: -2.09332409488
    z: -1.46752130613
    color: 1
    covariance: [0.0, 0.0, 0.0, 0.0]
    probability: 0.99951171875
    id: 1
  - 
    x: 5.2458598135
    y: -2.48115039695
    z: -1.34334151445
    color: 1
    covariance: [0.0, 0.0, 0.0, 0.0]
    probability: 0.99951171875
    id: 1
  - 
    x: 5.15262321729
    y: 0.88877333571
    z: -1.30133084469
    color: 1
    covariance: [0.0, 0.0, 0.0, 0.0]
    probability: 0.99951171875
    id: 1
  - 
    x: 7.16550804324
    y: 0.849293410817
    z: -1.45661931505
    color: 1
    covariance: [0.0, 0.0, 0.0, 0.0]
    probability: 0.99853515625
    id: 1
  - 
    x: 3.79515852147
    y: -2.32638334326
    z: -1.28539259807
    color: 1
    covariance: [0.0, 0.0, 0.0, 0.0]
    probability: 0.998001813889
    id: 1
  - 
    x: 3.58703259753
    y: 0.921461869853
    z: -1.23189741108
    color: 3
    covariance: [0.0, 0.0, 0.0, 0.0]
    probability: 0.999295473099
    id: 1
  - 
    x: 4.13283305217
    y: -1.06624680975
    z: -1.27564433993
    color: 3
    covariance: [0.0, 0.0, 0.0, 0.0]
    probability: 0.998768627644
    id: 1
---
header: 
  seq: 8
  stamp: 
    secs: 1674140037
    nsecs: 900038003
  frame_id: "dont_know_which_frame_to_use?"
cones: 
  - 
    x: 4.60927075596
    y: -0.121007083465
    z: -1.29897711255
    color: 2
    covariance: [0.0, 0.0, 0.0, 0.0]
    probability: 1.0
    id: 1
  - 
    x: 3.08917011071
    y: 1.77567926687
    z: -1.16597861358
    color: 2
    covariance: [0.0, 0.0, 0.0, 0.0]
    probability: 0.99951171875
    id: 1
  - 
    x: 4.58714848816
    y: -2.47876020934
    z: -1.33648312246
    color: 2
    covariance: [0.0, 0.0, 0.0, 0.0]
    probability: 0.999463737011
    id: 1
  - 
    x: 5.79765400547
    y: -1.14403615385
    z: -1.36703169176
    color: 1
    covariance: [0.0, 0.0, 0.0, 0.0]
    probability: 1.0
    id: 1
  - 
    x: 6.96531932436
    y: -2.10436999866
    z: -1.47613035352
    color: 1
    covariance: [0.0, 0.0, 0.0, 0.0]
    probability: 0.99951171875
    id: 1
  - 
    x: 5.23273123766
    y: -2.4755112457
    z: -1.34066574252
    color: 1
    covariance: [0.0, 0.0, 0.0, 0.0]
    probability: 0.99951171875
    id: 1
  - 
    x: 5.10858677351
    y: 0.880308828299
    z: -1.28936879826
    color: 1
    covariance: [0.0, 0.0, 0.0, 0.0]
    probability: 0.99951171875
    id: 1
  - 
    x: 7.13101808884
    y: 0.845796167057
    z: -1.45093782211
    color: 1
    covariance: [0.0, 0.0, 0.0, 0.0]
    probability: 0.99853515625
    id: 1
  - 
    x: 3.77643171256
    y: -2.31672832891
    z: -1.27943816154
    color: 1
    covariance: [0.0, 0.0, 0.0, 0.0]
    probability: 0.998317837715
    id: 1
  - 
    x: 3.59419669405
    y: 0.923200544924
    z: -1.23323602174
    color: 3
    covariance: [0.0, 0.0, 0.0, 0.0]
    probability: 0.999287724495
    id: 1
  - 
    x: 4.12896194279
    y: -1.06541281284
    z: -1.27404561368
    color: 3
    covariance: [0.0, 0.0, 0.0, 0.0]
    probability: 0.998797893524
    id: 1
---
header: 
  seq: 10
  stamp: 
    secs: 1674140038
    nsecs:  26683092
  frame_id: "dont_know_which_frame_to_use?"
cones: 
  - 
    x: 13.3107305148
    y: 7.31788508054
    z: 0.83081749954
    color: 2
    covariance: [0.0, 0.0, 0.0, 0.0]
    probability: 0.99951171875
    id: 1
  - 
    x: 5.91248352995
    y: 3.72717830408
    z: -0.0516146762518
    color: 2
    covariance: [0.0, 0.0, 0.0, 0.0]
    probability: 0.9990234375
    id: 1
  - 
    x: 7.89934150892
    y: 0.456608951859
    z: 0.150967587621
    color: 2
    covariance: [0.0, 0.0, 0.0, 0.0]
    probability: 0.9990234375
    id: 1
  - 
    x: 17.4527351813
    y: 3.64428105084
    z: 1.31449069561
    color: 2
    covariance: [0.0, 0.0, 0.0, 0.0]
    probability: 0.998763144016
    id: 1
---
header: 
  seq: 11
  stamp: 
    secs: 1674140038
    nsecs: 160921096
  frame_id: "dont_know_which_frame_to_use?"
cones: 
  - 
    x: 4.63803707882
    y: -0.122580791101
    z: -1.30459734578
    color: 2
    covariance: [0.0, 0.0, 0.0, 0.0]
    probability: 1.0
    id: 1
  - 
    x: 3.08541614612
    y: 1.77301748656
    z: -1.16399979802
    color: 2
    covariance: [0.0, 0.0, 0.0, 0.0]
    probability: 0.99951171875
    id: 1
  - 
    x: 4.60628539817
    y: -2.48436419284
    z: -1.34195751842
    color: 2
    covariance: [0.0, 0.0, 0.0, 0.0]
    probability: 0.999407708645
    id: 1
  - 
    x: 6.94659303475
    y: -2.09828276406
    z: -1.47254185586
    color: 1
    covariance: [0.0, 0.0, 0.0, 0.0]
    probability: 0.99951171875
    id: 1
  - 
    x: 5.23140702903
    y: -2.47460016472
    z: -1.3409789698
    color: 1
    covariance: [0.0, 0.0, 0.0, 0.0]
    probability: 0.99951171875
    id: 1
  - 
    x: 5.14386823039
    y: 0.888072500125
    z: -1.29897562324
    color: 1
    covariance: [0.0, 0.0, 0.0, 0.0]
    probability: 0.99951171875
    id: 1
  - 
    x: 5.77918348039
    y: -1.14094642736
    z: -1.36191901644
    color: 1
    covariance: [0.0, 0.0, 0.0, 0.0]
    probability: 0.99951171875
    id: 1
  - 
    x: 7.19378314623
    y: 0.85425271965
    z: -1.46275380223
    color: 1
    covariance: [0.0, 0.0, 0.0, 0.0]
    probability: 0.99853515625
    id: 1
  - 
    x: 3.77643797499
    y: -2.31663642134
    z: -1.27869669426
    color: 1
    covariance: [0.0, 0.0, 0.0, 0.0]
    probability: 0.998235285282
    id: 1
  - 
    x: 3.63481552992
    y: 0.934553524201
    z: -1.24640673899
    color: 3
    covariance: [0.0, 0.0, 0.0, 0.0]
    probability: 0.999324917793
    id: 1
  - 
    x: 4.10609257861
    y: -1.05927253206
    z: -1.26713404253
    color: 3
    covariance: [0.0, 0.0, 0.0, 0.0]
    probability: 0.9990234375
    id: 1
---
header: 
  seq: 12
  stamp: 
    secs: 1674140038
    nsecs: 237982988
  frame_id: "dont_know_which_frame_to_use?"
cones: 
  - 
    x: 4.61931428103
    y: -0.122160764854
    z: -1.30141041311
    color: 2
    covariance: [0.0, 0.0, 0.0, 0.0]
    probability: 1.0
    id: 1
  - 
    x: 4.55768249442
    y: -2.46074200409
    z: -1.32780205951
    color: 2
    covariance: [0.0, 0.0, 0.0, 0.0]
    probability: 0.999371051788
    id: 1
  - 
    x: 3.08466728706
    y: 1.77185865981
    z: -1.16327595769
    color: 2
    covariance: [0.0, 0.0, 0.0, 0.0]
    probability: 0.9990234375
    id: 1
  - 
    x: 5.80985160804
    y: -1.14611309274
    z: -1.36956146331
    color: 1
    covariance: [0.0, 0.0, 0.0, 0.0]
    probability: 1.0
    id: 1
  - 
    x: 6.95438521324
    y: -2.10180155844
    z: -1.47342864721
    color: 1
    covariance: [0.0, 0.0, 0.0, 0.0]
    probability: 0.99951171875
    id: 1
  - 
    x: 5.38242059589
    y: -2.54410927743
    z: -1.37811121115
    color: 1
    covariance: [0.0, 0.0, 0.0, 0.0]
    probability: 0.99951171875
    id: 1
  - 
    x: 5.16309302531
    y: 0.891376195834
    z: -1.3033858741
    color: 1
    covariance: [0.0, 0.0, 0.0, 0.0]
    probability: 0.99951171875
    id: 1
  - 
    x: 7.14745150039
    y: 0.848149637172
    z: -1.45421714452
    color: 1
    covariance: [0.0, 0.0, 0.0, 0.0]
    probability: 0.99853515625
    id: 1
  - 
    x: 3.79378568898
    y: -2.32641404396
    z: -1.28407342072
    color: 1
    covariance: [0.0, 0.0, 0.0, 0.0]
    probability: 0.998294830322
    id: 1
  - 
    x: 3.63450170393
    y: 0.933829174079
    z: -1.24618143441
    color: 3
    covariance: [0.0, 0.0, 0.0, 0.0]
    probability: 0.999225854874
    id: 1
  - 
    x: 4.13182026247
    y: -1.06677070777
    z: -1.27595824306
    color: 3
    covariance: [0.0, 0.0, 0.0, 0.0]
    probability: 0.998782098293
    id: 1
---
header: 
  seq: 13
  stamp: 
    secs: 1674140038
    nsecs: 272347927
  frame_id: "dont_know_which_frame_to_use?"
cones: 
  - 
    x: 13.0197246299
    y: 7.09623400396
    z: 0.779211798126
    color: 2
    covariance: [0.0, 0.0, 0.0, 0.0]
    probability: 0.99951171875
    id: 1
  - 
    x: 16.7015495649
    y: 9.78102978496
    z: 1.3385499446
    color: 2
    covariance: [0.0, 0.0, 0.0, 0.0]
    probability: 0.99951171875
    id: 1
  - 
    x: 5.65734441417
    y: 3.6209151299
    z: -0.0984278821761
    color: 2
    covariance: [0.0, 0.0, 0.0, 0.0]
    probability: 0.9990234375
    id: 1
  - 
    x: 7.39107269367
    y: 0.247614416486
    z: 0.0830573123594
    color: 2
    covariance: [0.0, 0.0, 0.0, 0.0]
    probability: 0.998434782028
    id: 1
  - 
    x: 17.159061969
    y: 3.37894081832
    z: 1.251571263
    color: 1
    covariance: [0.0, 0.0, 0.0, 0.0]
    probability: 0.99951171875
    id: 1
---
header: 
  seq: 14
  stamp: 
    secs: 1674140038
    nsecs: 339498043
  frame_id: "dont_know_which_frame_to_use?"
cones: 
  - 
    x: 4.6588521977
    y: -0.122073111724
    z: -1.3119144589
    color: 2
    covariance: [0.0, 0.0, 0.0, 0.0]
    probability: 1.0
    id: 1
  - 
    x: 4.57058956599
    y: -2.46704593903
    z: -1.33131043644
    color: 2
    covariance: [0.0, 0.0, 0.0, 0.0]
    probability: 0.999279677868
    id: 1
  - 
    x: 3.05866363494
    y: 1.75687816389
    z: -1.15478244144
    color: 2
    covariance: [0.0, 0.0, 0.0, 0.0]
    probability: 0.9990234375
    id: 1
  - 
    x: 6.93712705969
    y: -2.09443631744
    z: -1.46978537148
    color: 1
    covariance: [0.0, 0.0, 0.0, 0.0]
    probability: 0.99951171875
    id: 1
  - 
    x: 5.0980560872
    y: 0.878281848645
    z: -1.28668426233
    color: 1
    covariance: [0.0, 0.0, 0.0, 0.0]
    probability: 0.99951171875
    id: 1
  - 
    x: 5.83266069142
    y: -1.15029844402
    z: -1.37385733709
    color: 1
    covariance: [0.0, 0.0, 0.0, 0.0]
    probability: 0.99951171875
    id: 1
  - 
    x: 5.28025580476
    y: -2.49809225224
    z: -1.35210372413
    color: 1
    covariance: [0.0, 0.0, 0.0, 0.0]
    probability: 0.99951171875
    id: 1
  - 
    x: 7.17331305198
    y: 0.85245660159
    z: -1.45896638918
    color: 1
    covariance: [0.0, 0.0, 0.0, 0.0]
    probability: 0.99853515625
    id: 1
  - 
    x: 3.77535107046
    y: -2.3135895114
    z: -1.27823499329
    color: 1
    covariance: [0.0, 0.0, 0.0, 0.0]
    probability: 0.998346984386
    id: 1
  - 
    x: 3.63638881207
    y: 0.934499658266
    z: -1.24718612539
    color: 3
    covariance: [0.0, 0.0, 0.0, 0.0]
    probability: 0.999303936958
    id: 1
  - 
    x: 4.14930127455
    y: -1.07085584453
    z: -1.2810325092
    color: 3
    covariance: [0.0, 0.0, 0.0, 0.0]
    probability: 0.998824775219
    id: 1
---
header: 
  seq: 15
  stamp: 
    secs: 1674140038
    nsecs: 382437944
  frame_id: "dont_know_which_frame_to_use?"
cones: 
  - 
    x: 5.37536047683
    y: 3.50308850665
    z: -0.130243996163
    color: 2
    covariance: [0.0, 0.0, 0.0, 0.0]
    probability: 0.99951171875
    id: 1
  - 
    x: 12.5550073684
    y: 6.84815213832
    z: 0.73212457512
    color: 2
    covariance: [0.0, 0.0, 0.0, 0.0]
    probability: 0.99951171875
    id: 1
  - 
    x: 16.4217065303
    y: 10.6053069277
    z: 1.5531429084
    color: 2
    covariance: [0.0, 0.0, 0.0, 0.0]
    probability: 0.99951171875
    id: 1
  - 
    x: 16.8418951449
    y: 9.82741740115
    z: 1.3374296816
    color: 2
    covariance: [0.0, 0.0, 0.0, 0.0]
    probability: 0.9853515625
    id: 1
  - 
    x: 7.10601891648
    y: 0.123626415932
    z: 0.0339427072133
    color: 1
    covariance: [0.0, 0.0, 0.0, 0.0]
    probability: 0.99951171875
    id: 1
  - 
    x: 16.5895002269
    y: 3.1605611104
    z: 1.18586610642
    color: 1
    covariance: [0.0, 0.0, 0.0, 0.0]
    probability: 0.99951171875
    id: 1
---
header: 
  seq: 16
  stamp: 
    secs: 1674140038
    nsecs: 431207895
  frame_id: "dont_know_which_frame_to_use?"
cones: 
  - 
    x: 4.62046036236
    y: -0.122366558596
    z: -1.30214137439
    color: 2
    covariance: [0.0, 0.0, 0.0, 0.0]
    probability: 1.0
    id: 1
  - 
    x: 3.07912141869
    y: 1.76891453624
    z: -1.16168717622
    color: 2
    covariance: [0.0, 0.0, 0.0, 0.0]
    probability: 0.99951171875
    id: 1
  - 
    x: 4.58933041062
    y: -2.47783816214
    z: -1.33779095913
    color: 2
    covariance: [0.0, 0.0, 0.0, 0.0]
    probability: 0.999274671078
    id: 1
  - 
    x: 5.80982288779
    y: -1.14600824111
    z: -1.36999601971
    color: 1
    covariance: [0.0, 0.0, 0.0, 0.0]
    probability: 1.0
    id: 1
  - 
    x: 6.94585711049
    y: -2.09787683441
    z: -1.47109111182
    color: 1
    covariance: [0.0, 0.0, 0.0, 0.0]
    probability: 0.99951171875
    id: 1
  - 
    x: 5.30029658775
    y: -2.50685697296
    z: -1.35730839279
    color: 1
    covariance: [0.0, 0.0, 0.0, 0.0]
    probability: 0.99951171875
    id: 1
  - 
    x: 5.18427099596
    y: 0.894775518197
    z: -1.30844675395
    color: 1
    covariance: [0.0, 0.0, 0.0, 0.0]
    probability: 0.99951171875
    id: 1
  - 
    x: 7.19415159208
    y: 0.85459091046
    z: -1.46304823357
    color: 1
    covariance: [0.0, 0.0, 0.0, 0.0]
    probability: 0.99853515625
    id: 1
  - 
    x: 3.78146635218
    y: -2.31795913265
    z: -1.28036830798
    color: 1
    covariance: [0.0, 0.0, 0.0, 0.0]
    probability: 0.998070538044
    id: 1
  - 
    x: 3.63724069797
    y: 0.934673291858
    z: -1.24670221599
    color: 3
    covariance: [0.0, 0.0, 0.0, 0.0]
    probability: 0.999259889126
    id: 1
  - 
    x: 4.13173460632
    y: -1.06674009356
    z: -1.27587155684
    color: 3
    covariance: [0.0, 0.0, 0.0, 0.0]
    probability: 0.998845815659
    id: 1
---
header: 
  seq: 17
  stamp: 
    secs: 1674140038
    nsecs: 502727031
  frame_id: "dont_know_which_frame_to_use?"
cones: 
  - 
    x: 5.00719465569
    y: 3.34001827964
    z: -0.156099374324
    color: 2
    covariance: [0.0, 0.0, 0.0, 0.0]
    probability: 0.99951171875
    id: 1
  - 
    x: 12.363187703
    y: 6.77384012502
    z: 0.700278747021
    color: 2
    covariance: [0.0, 0.0, 0.0, 0.0]
    probability: 0.99951171875
    id: 1
  - 
    x: 15.9900310537
    y: 9.36394096842
    z: 1.25319825169
    color: 2
    covariance: [0.0, 0.0, 0.0, 0.0]
    probability: 0.99853515625
    id: 1
  - 
    x: 16.5854061162
    y: 3.09125387522
    z: 1.15943200377
    color: 2
    covariance: [0.0, 0.0, 0.0, 0.0]
    probability: 0.99560546875
    id: 1
  - 
    x: 6.70098050053
    y: 0.0342949492459
    z: -0.00607683565665
    color: 1
    covariance: [0.0, 0.0, 0.0, 0.0]
    probability: 0.99951171875
    id: 1
---
header: 
  seq: 18
  stamp: 
    secs: 1674140038
    nsecs: 638530969
  frame_id: "dont_know_which_frame_to_use?"
cones: 
  - 
    x: 4.74711158989
    y: 3.24533087115
    z: -0.186556206744
    color: 2
    covariance: [0.0, 0.0, 0.0, 0.0]
    probability: 0.99951171875
    id: 1
  - 
    x: 11.9198692425
    y: 6.56877959764
    z: 0.653379650398
    color: 2
    covariance: [0.0, 0.0, 0.0, 0.0]
    probability: 0.99951171875
    id: 1
  - 
    x: 16.0674525851
    y: 9.43361816779
    z: 1.24946582381
    color: 2
    covariance: [0.0, 0.0, 0.0, 0.0]
    probability: 0.99951171875
    id: 1
  - 
    x: 6.40128645811
    y: -0.048992817129
    z: -0.0363730161116
    color: 2
    covariance: [0.0, 0.0, 0.0, 0.0]
    probability: 0.9990234375
    id: 1
  - 
    x: 16.4028989522
    y: 3.00062075867
    z: 1.13485135348
    color: 1
    covariance: [0.0, 0.0, 0.0, 0.0]
    probability: 1.0
    id: 1
---
header: 
  seq: 20
  stamp: 
    secs: 1674140038
    nsecs: 797245025
  frame_id: "dont_know_which_frame_to_use?"
cones: 
  - 
    x: 4.63097088272
    y: -0.120975050885
    z: -1.30490691391
    color: 2
    covariance: [0.0, 0.0, 0.0, 0.0]
    probability: 1.0
    id: 1
  - 
    x: 3.06248394581
    y: 1.75892353026
    z: -1.1563234765
    color: 2
    covariance: [0.0, 0.0, 0.0, 0.0]
    probability: 0.99951171875
    id: 1
  - 
    x: 4.52646400802
    y: -2.44738020418
    z: -1.31908415765
    color: 2
    covariance: [0.0, 0.0, 0.0, 0.0]
    probability: 0.999358534813
    id: 1
  - 
    x: 6.9037026689
    y: -2.08479026616
    z: -1.4616360244
    color: 1
    covariance: [0.0, 0.0, 0.0, 0.0]
    probability: 0.99951171875
    id: 1
  - 
    x: 5.78745549336
    y: -1.14134489905
    z: -1.36452340974
    color: 1
    covariance: [0.0, 0.0, 0.0, 0.0]
    probability: 0.99951171875
    id: 1
  - 
    x: 5.10554993561
    y: 0.88007523538
    z: -1.2886063988
    color: 1
    covariance: [0.0, 0.0, 0.0, 0.0]
    probability: 0.99951171875
    id: 1
  - 
    x: 5.36237274215
    y: -2.53461290774
    z: -1.3725199512
    color: 1
    covariance: [0.0, 0.0, 0.0, 0.0]
    probability: 0.99951171875
    id: 1
  - 
    x: 7.10129008182
    y: 0.842511172162
    z: -1.44370872792
    color: 1
    covariance: [0.0, 0.0, 0.0, 0.0]
    probability: 0.99853515625
    id: 1
  - 
    x: 3.78372684529
    y: -2.31976475909
    z: -1.28078137307
    color: 1
    covariance: [0.0, 0.0, 0.0, 0.0]
    probability: 0.998132169247
    id: 1
  - 
    x: 3.65333368167
    y: 0.93937164319
    z: -1.25240587676
    color: 3
    covariance: [0.0, 0.0, 0.0, 0.0]
    probability: 0.999289572239
    id: 1
  - 
    x: 4.10459580592
    y: -1.05909693523
    z: -1.26668425423
    color: 3
    covariance: [0.0, 0.0, 0.0, 0.0]
    probability: 0.9990234375
    id: 1
---
header: 
  seq: 21
  stamp: 
    secs: 1674140038
    nsecs: 830214023
  frame_id: "dont_know_which_frame_to_use?"
cones: 
  - 
    x: 12.0125287565
    y: 6.67538440022
    z: 0.639913952434
    color: 2
    covariance: [0.0, 0.0, 0.0, 0.0]
    probability: 0.99951171875
    id: 1
  - 
    x: 4.50091417546
    y: 3.18113684632
    z: -0.220435582374
    color: 2
    covariance: [0.0, 0.0, 0.0, 0.0]
    probability: 0.99951171875
    id: 1
  - 
    x: 15.4985553839
    y: 9.1384709938
    z: 1.19601243539
    color: 2
    covariance: [0.0, 0.0, 0.0, 0.0]
    probability: 0.999245941639
    id: 1
  - 
    x: 16.2257251594
    y: 2.89477078532
    z: 1.10524033844
    color: 2
    covariance: [0.0, 0.0, 0.0, 0.0]
    probability: 0.9990234375
    id: 1
  - 
    x: 6.00280537106
    y: -0.148920120891
    z: -0.0740390895563
    color: 1
    covariance: [0.0, 0.0, 0.0, 0.0]
    probability: 0.99951171875
    id: 1
---
header: 
  seq: 22
  stamp: 
    secs: 1674140038
    nsecs: 941176891
  frame_id: "dont_know_which_frame_to_use?"
cones: 
  - 
    x: 4.63620649649
    y: -0.121679891452
    z: -1.30596855238
    color: 2
    covariance: [0.0, 0.0, 0.0, 0.0]
    probability: 1.0
    id: 1
  - 
    x: 3.06344923833
    y: 1.75876396857
    z: -1.15600411263
    color: 2
    covariance: [0.0, 0.0, 0.0, 0.0]
    probability: 0.99951171875
    id: 1
  - 
    x: 4.51577686491
    y: -2.43974573323
    z: -1.31727156555
    color: 2
    covariance: [0.0, 0.0, 0.0, 0.0]
    probability: 0.999373078346
    id: 1
  - 
    x: 5.79717224103
    y: -1.14318049112
    z: -1.36607342431
    color: 1
    covariance: [0.0, 0.0, 0.0, 0.0]
    probability: 1.0
    id: 1
  - 
    x: 6.93674055903
    y: -2.09439101378
    z: -1.46984376285
    color: 1
    covariance: [0.0, 0.0, 0.0, 0.0]
    probability: 0.99951171875
    id: 1
  - 
    x: 5.16413630759
    y: 0.891002766887
    z: -1.30407460722
    color: 1
    covariance: [0.0, 0.0, 0.0, 0.0]
    probability: 0.99951171875
    id: 1
  - 
    x: 5.30592300303
    y: -2.50879884261
    z: -1.35876993112
    color: 1
    covariance: [0.0, 0.0, 0.0, 0.0]
    probability: 0.99951171875
    id: 1
  - 
    x: 7.20217432502
    y: 0.856332770653
    z: -1.46304185729
    color: 1
    covariance: [0.0, 0.0, 0.0, 0.0]
    probability: 0.99853515625
    id: 1
  - 
    x: 3.79223051892
    y: -2.32458277993
    z: -1.2838907124
    color: 1
    covariance: [0.0, 0.0, 0.0, 0.0]
    probability: 0.998183190823
    id: 1
  - 
    x: 3.64008057579
    y: 0.935584606871
    z: -1.24797634964
    color: 3
    covariance: [0.0, 0.0, 0.0, 0.0]
    probability: 0.999284803867
    id: 1
  - 
    x: 4.13852644657
    y: -1.06800356254
    z: -1.27655429128
    color: 3
    covariance: [0.0, 0.0, 0.0, 0.0]
    probability: 0.99885571003
    id: 1
---
header: 
  seq: 23
  stamp: 
    secs: 1674140039
    nsecs:  48801898
  frame_id: "dont_know_which_frame_to_use?"
cones: 
  - 
    x: 4.6300527953
    y: -0.123990070695
    z: -1.30404480908
    color: 2
    covariance: [0.0, 0.0, 0.0, 0.0]
    probability: 1.0
    id: 1
  - 
    x: 4.5189923553
    y: -2.44188412879
    z: -1.31812994349
    color: 2
    covariance: [0.0, 0.0, 0.0, 0.0]
    probability: 0.999341666698
    id: 1
  - 
    x: 3.04888027218
    y: 1.75052568856
    z: -1.15123164887
    color: 2
    covariance: [0.0, 0.0, 0.0, 0.0]
    probability: 0.9990234375
    id: 1
  - 
    x: 5.78813320281
    y: -1.14189878118
    z: -1.36381798981
    color: 1
    covariance: [0.0, 0.0, 0.0, 0.0]
    probability: 1.0
    id: 1
  - 
    x: 6.9337946341
    y: -2.0945401656
    z: -1.46833934868
    color: 1
    covariance: [0.0, 0.0, 0.0, 0.0]
    probability: 0.99951171875
    id: 1
  - 
    x: 5.162904181
    y: 0.890489952513
    z: -1.30337219856
    color: 1
    covariance: [0.0, 0.0, 0.0, 0.0]
    probability: 0.99951171875
    id: 1
  - 
    x: 5.32011486334
    y: -2.51558642453
    z: -1.36204827941
    color: 1
    covariance: [0.0, 0.0, 0.0, 0.0]
    probability: 0.99951171875
    id: 1
  - 
    x: 7.10912629333
    y: 0.843280053096
    z: -1.44500242342
    color: 1
    covariance: [0.0, 0.0, 0.0, 0.0]
    probability: 0.99853515625
    id: 1
  - 
    x: 3.77895101462
    y: -2.31694351177
    z: -1.27924343991
    color: 1
    covariance: [0.0, 0.0, 0.0, 0.0]
    probability: 0.997998535633
    id: 1
  - 
    x: 3.61181246246
    y: 0.928616760884
    z: -1.23888949359
    color: 3
    covariance: [0.0, 0.0, 0.0, 0.0]
    probability: 0.999289155006
    id: 1
  - 
    x: 4.13572455268
    y: -1.0677426917
    z: -1.2760072521
    color: 3
    covariance: [0.0, 0.0, 0.0, 0.0]
    probability: 0.998806774616
    id: 1
---
header: 
  seq: 24
  stamp: 
    secs: 1674140039
    nsecs:  92175006
  frame_id: "dont_know_which_frame_to_use?"
cones: 
  - 
    x: 4.6235787275
    y: -0.123354961698
    z: -1.30266572839
    color: 2
    covariance: [0.0, 0.0, 0.0, 0.0]
    probability: 1.0
    id: 1
  - 
    x: 3.0618914052
    y: 1.75787252872
    z: -1.15592952288
    color: 2
    covariance: [0.0, 0.0, 0.0, 0.0]
    probability: 0.99951171875
    id: 1
  - 
    x: 4.51573345428
    y: -2.43859715422
    z: -1.31715325364
    color: 2
    covariance: [0.0, 0.0, 0.0, 0.0]
    probability: 0.999370634556
    id: 1
  - 
    x: 6.93382846138
    y: -2.0942126169
    z: -1.46871354075
    color: 1
    covariance: [0.0, 0.0, 0.0, 0.0]
    probability: 0.99951171875
    id: 1
  - 
    x: 5.82107558862
    y: -1.14776488564
    z: -1.37259083193
    color: 1
    covariance: [0.0, 0.0, 0.0, 0.0]
    probability: 0.99951171875
    id: 1
  - 
    x: 5.16276376148
    y: 0.890903672749
    z: -1.30335870243
    color: 1
    covariance: [0.0, 0.0, 0.0, 0.0]
    probability: 0.99951171875
    id: 1
  - 
    x: 5.30897759817
    y: -2.51044904664
    z: -1.35953305711
    color: 1
    covariance: [0.0, 0.0, 0.0, 0.0]
    probability: 0.99951171875
    id: 1
  - 
    x: 7.19968047988
    y: 0.854366957152
    z: -1.46395232808
    color: 1
    covariance: [0.0, 0.0, 0.0, 0.0]
    probability: 0.99853515625
    id: 1
  - 
    x: 3.78988983792
    y: -2.32289439022
    z: -1.28239982275
    color: 1
    covariance: [0.0, 0.0, 0.0, 0.0]
    probability: 0.998114824295
    id: 1
  - 
    x: 3.63964941735
    y: 0.935247618919
    z: -1.24738459407
    color: 3
    covariance: [0.0, 0.0, 0.0, 0.0]
    probability: 0.999240279198
    id: 1
  - 
    x: 4.09267970955
    y: -1.05654863607
    z: -1.2636717816
    color: 3
    covariance: [0.0, 0.0, 0.0, 0.0]
    probability: 0.998819410801
    id: 1
---
header: 
  seq: 25
  stamp: 
    secs: 1674140039
    nsecs: 128686904
  frame_id: "dont_know_which_frame_to_use?"
cones: 
  - 
    x: 11.264149668
    y: 6.27508376868
    z: 0.565488253031
    color: 2
    covariance: [0.0, 0.0, 0.0, 0.0]
    probability: 1.0
    id: 1
  - 
    x: 15.640946783
    y: 9.18383467787
    z: 1.18078471227
    color: 2
    covariance: [0.0, 0.0, 0.0, 0.0]
    probability: 0.99951171875
    id: 1
  - 
    x: 4.99373176697
    y: -0.353370795868
    z: -0.136731057894
    color: 2
    covariance: [0.0, 0.0, 0.0, 0.0]
    probability: 0.99853515625
    id: 1
  - 
    x: 15.0859614996
    y: 2.47612743124
    z: 1.0003915045
    color: 1
    covariance: [0.0, 0.0, 0.0, 0.0]
    probability: 0.999512314796
    id: 1
---
header: 
  seq: 26
  stamp: 
    secs: 1674140039
    nsecs: 248707056
  frame_id: "dont_know_which_frame_to_use?"
cones: 
  - 
    x: 4.62817158825
    y: -0.123878902373
    z: -1.30357081739
    color: 2
    covariance: [0.0, 0.0, 0.0, 0.0]
    probability: 1.0
    id: 1
  - 
    x: 3.08601277509
    y: 1.77310119808
    z: -1.1638481946
    color: 2
    covariance: [0.0, 0.0, 0.0, 0.0]
    probability: 0.99951171875
    id: 1
  - 
    x: 4.5585263161
    y: -2.46032033596
    z: -1.33050483474
    color: 2
    covariance: [0.0, 0.0, 0.0, 0.0]
    probability: 0.99936568737
    id: 1
  - 
    x: 6.9320181954
    y: -2.0937980585
    z: -1.46846174188
    color: 1
    covariance: [0.0, 0.0, 0.0, 0.0]
    probability: 0.99951171875
    id: 1
  - 
    x: 5.78921842781
    y: -1.14226029602
    z: -1.36394474391
    color: 1
    covariance: [0.0, 0.0, 0.0, 0.0]
    probability: 0.99951171875
    id: 1
  - 
    x: 5.16998075133
    y: 0.892634674321
    z: -1.30487331118
    color: 1
    covariance: [0.0, 0.0, 0.0, 0.0]
    probability: 0.99951171875
    id: 1
  - 
    x: 5.33630068122
    y: -2.52187395353
    z: -1.36653956441
    color: 1
    covariance: [0.0, 0.0, 0.0, 0.0]
    probability: 0.99951171875
    id: 1
  - 
    x: 7.18862241403
    y: 0.853333635428
    z: -1.46233437271
    color: 1
    covariance: [0.0, 0.0, 0.0, 0.0]
    probability: 0.99853515625
    id: 1
  - 
    x: 3.78790318597
    y: -2.32099615087
    z: -1.2826612766
    color: 1
    covariance: [0.0, 0.0, 0.0, 0.0]
    probability: 0.99839091301
    id: 1
  - 
    x: 3.64356553289
    y: 0.936933035226
    z: -1.2489585462
    color: 3
    covariance: [0.0, 0.0, 0.0, 0.0]
    probability: 0.999266564846
    id: 1
  - 
    x: 4.14604747646
    y: -1.06995121993
    z: -1.27883204524
    color: 3
    covariance: [0.0, 0.0, 0.0, 0.0]
    probability: 0.998804211617
    id: 1
---
header: 
  seq: 27
  stamp: 
    secs: 1674140039
    nsecs: 269431114
  frame_id: "dont_know_which_frame_to_use?"
cones: 
  - 
    x: 10.9035018026
    y: 6.05044235557
    z: 0.532042896791
    color: 2
    covariance: [0.0, 0.0, 0.0, 0.0]
    probability: 0.99951171875
    id: 1
  - 
    x: 14.7428965702
    y: 8.59560895495
    z: 1.10162275002
    color: 2
    covariance: [0.0, 0.0, 0.0, 0.0]
    probability: 0.99951171875
    id: 1
  - 
    x: 5.32357740892
    y: 3.92917470093
    z: -0.461675513224
    color: 2
    covariance: [0.0, 0.0, 0.0, 0.0]
    probability: 0.9873046875
    id: 1
  - 
    x: 4.54960229159
    y: -0.471121814266
    z: -0.175868610604
    color: 2
    covariance: [0.0, 0.0, 0.0, 0.0]
    probability: 0.980229914188
    id: 1
  - 
    x: 14.773100676
    y: 2.2742293223
    z: 0.956970746422
    color: 1
    covariance: [0.0, 0.0, 0.0, 0.0]
    probability: 0.99951171875
    id: 1
---
header: 
  seq: 29
  stamp: 
    secs: 1674140039
    nsecs: 390594005
  frame_id: "dont_know_which_frame_to_use?"
cones: 
  - 
    x: 11.0029337358
    y: 6.10025956538
    z: 0.511793703215
    color: 2
    covariance: [0.0, 0.0, 0.0, 0.0]
    probability: 0.9990234375
    id: 1
  - 
    x: 14.7828760945
    y: 8.56194082904
    z: 1.08149267307
    color: 2
    covariance: [0.0, 0.0, 0.0, 0.0]
    probability: 0.9990234375
    id: 1
  - 
    x: 6.93259018451
    y: 5.1517632584
    z: -0.643949733137
    color: 2
    covariance: [0.0, 0.0, 0.0, 0.0]
    probability: 0.99755859375
    id: 1
  - 
    x: 4.1356504805
    y: -0.549395501923
    z: -0.2015363034
    color: 2
    covariance: [0.0, 0.0, 0.0, 0.0]
    probability: 0.68408203125
    id: 1
  - 
    x: 14.0911753851
    y: 2.05040021494
    z: 0.893103181486
    color: 1
    covariance: [0.0, 0.0, 0.0, 0.0]
    probability: 0.99951171875
    id: 1
---
header: 
  seq: 30
  stamp: 
    secs: 1674140039
    nsecs: 488137960
  frame_id: "dont_know_which_frame_to_use?"
cones: 
  - 
    x: 4.62583512463
    y: -0.123432490561
    z: -1.30267938441
    color: 2
    covariance: [0.0, 0.0, 0.0, 0.0]
    probability: 1.0
    id: 1
  - 
    x: 4.52423955395
    y: -2.4441597451
    z: -1.32006058622
    color: 2
    covariance: [0.0, 0.0, 0.0, 0.0]
    probability: 0.999355971813
    id: 1
  - 
    x: 3.06612296007
    y: 1.76021978161
    z: -1.15721239329
    color: 2
    covariance: [0.0, 0.0, 0.0, 0.0]
    probability: 0.9990234375
    id: 1
  - 
    x: 6.92937592254
    y: -2.09479275637
    z: -1.46795591354
    color: 1
    covariance: [0.0, 0.0, 0.0, 0.0]
    probability: 0.99951171875
    id: 1
  - 
    x: 5.80613800044
    y: -1.14446981499
    z: -1.36803634571
    color: 1
    covariance: [0.0, 0.0, 0.0, 0.0]
    probability: 0.99951171875
    id: 1
  - 
    x: 5.17527351277
    y: 0.892361385824
    z: -1.30648919711
    color: 1
    covariance: [0.0, 0.0, 0.0, 0.0]
    probability: 0.99951171875
    id: 1
  - 
    x: 5.27549815711
    y: -2.49465132257
    z: -1.35126769205
    color: 1
    covariance: [0.0, 0.0, 0.0, 0.0]
    probability: 0.99951171875
    id: 1
  - 
    x: 7.10225144095
    y: 0.841834377633
    z: -1.44504134291
    color: 1
    covariance: [0.0, 0.0, 0.0, 0.0]
    probability: 0.99853515625
    id: 1
  - 
    x: 3.80706555154
    y: -2.33206171787
    z: -1.28890362783
    color: 1
    covariance: [0.0, 0.0, 0.0, 0.0]
    probability: 0.998091161251
    id: 1
  - 
    x: 3.61989153894
    y: 0.93070431876
    z: -1.24186838249
    color: 3
    covariance: [0.0, 0.0, 0.0, 0.0]
    probability: 0.999342024326
    id: 1
  - 
    x: 4.15629508471
    y: -1.07145959835
    z: -1.28151826687
    color: 3
    covariance: [0.0, 0.0, 0.0, 0.0]
    probability: 0.99886405468
    id: 1
---
header: 
  seq: 31
  stamp: 
    secs: 1674140039
    nsecs: 534013986
  frame_id: "dont_know_which_frame_to_use?"
cones: 
  - 
    x: 10.7693159741
    y: 5.94869835037
    z: 0.48107089225
    color: 2
    covariance: [0.0, 0.0, 0.0, 0.0]
    probability: 0.99951171875
    id: 1
  - 
    x: 17.1155650737
    y: 9.83816725796
    z: 1.24821988864
    color: 2
    covariance: [0.0, 0.0, 0.0, 0.0]
    probability: 0.99951171875
    id: 1
  - 
    x: 13.4605017763
    y: 1.81672689234
    z: 0.831807014617
    color: 2
    covariance: [0.0, 0.0, 0.0, 0.0]
    probability: 0.998046875
    id: 1
  - 
    x: 4.49435190904
    y: -0.739030605871
    z: -0.284166421934
    color: 1
    covariance: [0.0, 0.0, 0.0, 0.0]
    probability: 0.99951171875
    id: 1
---
header: 
  seq: 33
  stamp: 
    secs: 1674140039
    nsecs: 751970052
  frame_id: "dont_know_which_frame_to_use?"
cones: 
  - 
    x: 10.5793896426
    y: 5.83207170261
    z: 0.456514145735
    color: 2
    covariance: [0.0, 0.0, 0.0, 0.0]
    probability: 1.0
    id: 1
  - 
    x: 14.4077657031
    y: 8.23997331656
    z: 1.04273690725
    color: 2
    covariance: [0.0, 0.0, 0.0, 0.0]
    probability: 0.9990234375
    id: 1
  - 
    x: 13.2974348786
    y: 1.67446654475
    z: 0.805566973561
    color: 2
    covariance: [0.0, 0.0, 0.0, 0.0]
    probability: 0.99853515625
    id: 1
  - 
    x: 6.99993347652
    y: -1.19513855148
    z: -0.564581485582
    color: 1
    covariance: [0.0, 0.0, 0.0, 0.0]
    probability: 0.99951171875
    id: 1
---
header: 
  seq: 34
  stamp: 
    secs: 1674140039
    nsecs: 810982942
  frame_id: "dont_know_which_frame_to_use?"
cones: 
  - 
    x: 10.5458170401
    y: 5.80306548731
    z: 0.447665237319
    color: 2
    covariance: [0.0, 0.0, 0.0, 0.0]
    probability: 1.0
    id: 1
  - 
    x: 14.7949451143
    y: 8.4161790818
    z: 1.07628534542
    color: 2
    covariance: [0.0, 0.0, 0.0, 0.0]
    probability: 0.99853515625
    id: 1
  - 
    x: 12.7973948647
    y: 1.51712068792
    z: 0.771265513814
    color: 2
    covariance: [0.0, 0.0, 0.0, 0.0]
    probability: 0.9970703125
    id: 1
---
header: 
  seq: 36
  stamp: 
    secs: 1674140039
    nsecs: 912195920
  frame_id: "dont_know_which_frame_to_use?"
cones: 
  - 
    x: 10.4614748896
    y: 5.75172029078
    z: 0.4346949936
    color: 2
    covariance: [0.0, 0.0, 0.0, 0.0]
    probability: 1.0
    id: 1
  - 
    x: 14.4420910852
    y: 8.19988823717
    z: 1.045379537
    color: 2
    covariance: [0.0, 0.0, 0.0, 0.0]
    probability: 0.99951171875
    id: 1
  - 
    x: 12.5318474251
    y: 1.42323846615
    z: 0.74032911383
    color: 2
    covariance: [0.0, 0.0, 0.0, 0.0]
    probability: 0.998046875
    id: 1
---
header: 
  seq: 37
  stamp: 
    secs: 1674140039
    nsecs: 966975927
  frame_id: "dont_know_which_frame_to_use?"
cones: 
  - 
    x: 4.62390056484
    y: -0.122401054921
    z: -1.30173242593
    color: 2
    covariance: [0.0, 0.0, 0.0, 0.0]
    probability: 1.0
    id: 1
  - 
    x: 3.0787469776
    y: 1.76925048245
    z: -1.16166888907
    color: 2
    covariance: [0.0, 0.0, 0.0, 0.0]
    probability: 0.99951171875
    id: 1
  - 
    x: 4.51044723603
    y: -2.43433896697
    z: -1.31515926759
    color: 2
    covariance: [0.0, 0.0, 0.0, 0.0]
    probability: 0.999364078045
    id: 1
  - 
    x: 6.89410499077
    y: -2.08169639882
    z: -1.46026627033
    color: 1
    covariance: [0.0, 0.0, 0.0, 0.0]
    probability: 0.99951171875
    id: 1
  - 
    x: 5.26072292738
    y: -2.48749629341
    z: -1.34757628984
    color: 1
    covariance: [0.0, 0.0, 0.0, 0.0]
    probability: 0.99951171875
    id: 1
  - 
    x: 5.7933840927
    y: -1.1427130519
    z: -1.36619312756
    color: 1
    covariance: [0.0, 0.0, 0.0, 0.0]
    probability: 0.99951171875
    id: 1
  - 
    x: 5.15690987963
    y: 0.889335001707
    z: -1.30194157839
    color: 1
    covariance: [0.0, 0.0, 0.0, 0.0]
    probability: 0.99951171875
    id: 1
  - 
    x: 7.19182925562
    y: 0.853372779491
    z: -1.46292363636
    color: 1
    covariance: [0.0, 0.0, 0.0, 0.0]
    probability: 0.99853515625
    id: 1
  - 
    x: 3.79409630159
    y: -2.32543897137
    z: -1.28577998031
    color: 1
    covariance: [0.0, 0.0, 0.0, 0.0]
    probability: 0.998073041439
    id: 1
  - 
    x: 3.59280005639
    y: 0.923430585204
    z: -1.23361234194
    color: 3
    covariance: [0.0, 0.0, 0.0, 0.0]
    probability: 0.999265730381
    id: 1
  - 
    x: 4.10340195328
    y: -1.05920847377
    z: -1.26641027148
    color: 3
    covariance: [0.0, 0.0, 0.0, 0.0]
    probability: 0.998787879944
    id: 1
---
header: 
  seq: 38
  stamp: 
    secs: 1674140040
    nsecs:  30153036
  frame_id: "dont_know_which_frame_to_use?"
cones: 
  - 
    x: 4.64166028426
    y: -0.12277967805
    z: -1.30569011529
    color: 2
    covariance: [0.0, 0.0, 0.0, 0.0]
    probability: 1.0
    id: 1
  - 
    x: 3.05992729758
    y: 1.75731014558
    z: -1.15529394174
    color: 2
    covariance: [0.0, 0.0, 0.0, 0.0]
    probability: 0.99951171875
    id: 1
  - 
    x: 4.55457830509
    y: -2.46168610941
    z: -1.32750399778
    color: 2
    covariance: [0.0, 0.0, 0.0, 0.0]
    probability: 0.999444246292
    id: 1
  - 
    x: 5.81020844468
    y: -1.14587747829
    z: -1.37011366616
    color: 1
    covariance: [0.0, 0.0, 0.0, 0.0]
    probability: 1.0
    id: 1
  - 
    x: 6.94164592247
    y: -2.09764242077
    z: -1.47077544091
    color: 1
    covariance: [0.0, 0.0, 0.0, 0.0]
    probability: 0.99951171875
    id: 1
  - 
    x: 5.0886093258
    y: 0.876690861763
    z: -1.28440380119
    color: 1
    covariance: [0.0, 0.0, 0.0, 0.0]
    probability: 0.99951171875
    id: 1
  - 
    x: 5.27404438077
    y: -2.4939444147
    z: -1.35161561167
    color: 1
    covariance: [0.0, 0.0, 0.0, 0.0]
    probability: 0.99951171875
    id: 1
  - 
    x: 7.12940277819
    y: 0.846527522786
    z: -1.45102244697
    color: 1
    covariance: [0.0, 0.0, 0.0, 0.0]
    probability: 0.99853515625
    id: 1
  - 
    x: 3.75887374918
    y: -2.30460450536
    z: -1.27372161776
    color: 1
    covariance: [0.0, 0.0, 0.0, 0.0]
    probability: 0.99806112051
    id: 1
  - 
    x: 3.58974454351
    y: 0.922686974008
    z: -1.2327655968
    color: 3
    covariance: [0.0, 0.0, 0.0, 0.0]
    probability: 0.999274849892
    id: 1
  - 
    x: 4.09850774918
    y: -1.05849681229
    z: -1.26526205942
    color: 3
    covariance: [0.0, 0.0, 0.0, 0.0]
    probability: 0.998837649822
    id: 1
---
header: 
  seq: 39
  stamp: 
    secs: 1674140040
    nsecs:  69735050
  frame_id: "dont_know_which_frame_to_use?"
cones: 
  - 
    x: 4.61677591634
    y: -0.121820639567
    z: -1.30037704699
    color: 2
    covariance: [0.0, 0.0, 0.0, 0.0]
    probability: 1.0
    id: 1
  - 
    x: 3.07353309057
    y: 1.76543600883
    z: -1.15984833351
    color: 2
    covariance: [0.0, 0.0, 0.0, 0.0]
    probability: 0.99951171875
    id: 1
  - 
    x: 4.52460688897
    y: -2.44416576653
    z: -1.31952881701
    color: 2
    covariance: [0.0, 0.0, 0.0, 0.0]
    probability: 0.999419033527
    id: 1
  - 
    x: 6.91463078282
    y: -2.08793420173
    z: -1.46427144366
    color: 1
    covariance: [0.0, 0.0, 0.0, 0.0]
    probability: 0.99951171875
    id: 1
  - 
    x: 5.29779039926
    y: -2.50558369889
    z: -1.35727019234
    color: 1
    covariance: [0.0, 0.0, 0.0, 0.0]
    probability: 0.99951171875
    id: 1
  - 
    x: 5.81002292847
    y: -1.14578266844
    z: -1.36938557207
    color: 1
    covariance: [0.0, 0.0, 0.0, 0.0]
    probability: 0.99951171875
    id: 1
  - 
    x: 5.16096688894
    y: 0.890603785415
    z: -1.30319481905
    color: 1
    covariance: [0.0, 0.0, 0.0, 0.0]
    probability: 0.99951171875
    id: 1
  - 
    x: 7.10242744401
    y: 0.842141488524
    z: -1.44388929838
    color: 1
    covariance: [0.0, 0.0, 0.0, 0.0]
    probability: 0.99853515625
    id: 1
  - 
    x: 3.76970896606
    y: -2.31100234043
    z: -1.27665333132
    color: 1
    covariance: [0.0, 0.0, 0.0, 0.0]
    probability: 0.998209476471
    id: 1
  - 
    x: 3.6108073323
    y: 0.928302845854
    z: -1.23837952643
    color: 3
    covariance: [0.0, 0.0, 0.0, 0.0]
    probability: 0.99926429987
    id: 1
  - 
    x: 4.12410551854
    y: -1.06342571177
    z: -1.27292179344
    color: 3
    covariance: [0.0, 0.0, 0.0, 0.0]
    probability: 0.998769462109
    id: 1
---
header: 
  seq: 40
  stamp: 
    secs: 1674140040
    nsecs: 116679906
  frame_id: "dont_know_which_frame_to_use?"
cones: 
  - 
    x: 10.072890136
    y: 5.52410762037
    z: 0.388789837432
    color: 2
    covariance: [0.0, 0.0, 0.0, 0.0]
    probability: 0.99951171875
    id: 1
  - 
    x: 14.8642433516
    y: 8.34399647717
    z: 1.06232260225
    color: 2
    covariance: [0.0, 0.0, 0.0, 0.0]
    probability: 0.99951171875
    id: 1
  - 
    x: 12.024683194
    y: 1.15498493256
    z: 0.678082390957
    color: 2
    covariance: [0.0, 0.0, 0.0, 0.0]
    probability: 0.99853515625
    id: 1
---
header: 
  seq: 42
  stamp: 
    secs: 1674140040
    nsecs: 253629922
  frame_id: "dont_know_which_frame_to_use?"
cones: 
  - 
    x: 4.65460895927
    y: -0.121901674373
    z: -1.31079954626
    color: 2
    covariance: [0.0, 0.0, 0.0, 0.0]
    probability: 1.0
    id: 1
  - 
    x: 4.54968463674
    y: -2.4588389868
    z: -1.32702295438
    color: 2
    covariance: [0.0, 0.0, 0.0, 0.0]
    probability: 0.999410688877
    id: 1
  - 
    x: 3.06336060706
    y: 1.75981913072
    z: -1.15653107626
    color: 2
    covariance: [0.0, 0.0, 0.0, 0.0]
    probability: 0.9990234375
    id: 1
  - 
    x: 6.92247304667
    y: -2.09160542153
    z: -1.46638136747
    color: 1
    covariance: [0.0, 0.0, 0.0, 0.0]
    probability: 0.99951171875
    id: 1
  - 
    x: 5.15269706679
    y: 0.888768494374
    z: -1.30105987705
    color: 1
    covariance: [0.0, 0.0, 0.0, 0.0]
    probability: 0.99951171875
    id: 1
  - 
    x: 5.79381541158
    y: -1.14302602055
    z: -1.36582714611
    color: 1
    covariance: [0.0, 0.0, 0.0, 0.0]
    probability: 0.99951171875
    id: 1
  - 
    x: 5.29250701854
    y: -2.50205346076
    z: -1.35562188961
    color: 1
    covariance: [0.0, 0.0, 0.0, 0.0]
    probability: 0.99951171875
    id: 1
  - 
    x: 7.16006391239
    y: 0.848653960519
    z: -1.45548168952
    color: 1
    covariance: [0.0, 0.0, 0.0, 0.0]
    probability: 0.99853515625
    id: 1
  - 
    x: 3.77237458448
    y: -2.31227468657
    z: -1.27690910824
    color: 1
    covariance: [0.0, 0.0, 0.0, 0.0]
    probability: 0.998184263706
    id: 1
  - 
    x: 3.60598316882
    y: 0.926300303427
    z: -1.23698522956
    color: 3
    covariance: [0.0, 0.0, 0.0, 0.0]
    probability: 0.9993237257
    id: 1
  - 
    x: 4.14295878333
    y: -1.06898101588
    z: -1.27929822151
    color: 3
    covariance: [0.0, 0.0, 0.0, 0.0]
    probability: 0.998856067657
    id: 1
---
header: 
  seq: 43
  stamp: 
    secs: 1674140040
    nsecs: 308073997
  frame_id: "dont_know_which_frame_to_use?"
cones: 
  - 
    x: 4.64139134787
    y: -0.123978045522
    z: -1.30689956437
    color: 2
    covariance: [0.0, 0.0, 0.0, 0.0]
    probability: 1.0
    id: 1
  - 
    x: 3.05899277597
    y: 1.7566359694
    z: -1.15501244166
    color: 2
    covariance: [0.0, 0.0, 0.0, 0.0]
    probability: 0.99951171875
    id: 1
  - 
    x: 4.47253133537
    y: -2.4190653566
    z: -1.30329505832
    color: 2
    covariance: [0.0, 0.0, 0.0, 0.0]
    probability: 0.999468326569
    id: 1
  - 
    x: 5.79411483126
    y: -1.14232563003
    z: -1.36652089808
    color: 1
    covariance: [0.0, 0.0, 0.0, 0.0]
    probability: 1.0
    id: 1
  - 
    x: 6.91632903647
    y: -2.08874517484
    z: -1.46524538559
    color: 1
    covariance: [0.0, 0.0, 0.0, 0.0]
    probability: 0.99951171875
    id: 1
  - 
    x: 5.30700322258
    y: -2.50968796573
    z: -1.35917415915
    color: 1
    covariance: [0.0, 0.0, 0.0, 0.0]
    probability: 0.99951171875
    id: 1
  - 
    x: 5.10712629263
    y: 0.880689803232
    z: -1.28927169972
    color: 1
    covariance: [0.0, 0.0, 0.0, 0.0]
    probability: 0.99951171875
    id: 1
  - 
    x: 7.21959888045
    y: 0.858515542498
    z: -1.46765148492
    color: 1
    covariance: [0.0, 0.0, 0.0, 0.0]
    probability: 0.99853515625
    id: 1
  - 
    x: 3.83732557619
    y: -2.35148713077
    z: -1.29851827704
    color: 1
    covariance: [0.0, 0.0, 0.0, 0.0]
    probability: 0.998054563999
    id: 1
  - 
    x: 3.619586631
    y: 0.930853164408
    z: -1.24126920028
    color: 3
    covariance: [0.0, 0.0, 0.0, 0.0]
    probability: 0.999257802963
    id: 1
  - 
    x: 4.14610836112
    y: -1.07015316454
    z: -1.2803968392
    color: 3
    covariance: [0.0, 0.0, 0.0, 0.0]
    probability: 0.998918473721
    id: 1
---
header: 
  seq: 46
  stamp: 
    secs: 1674140040
    nsecs: 536371946
  frame_id: "dont_know_which_frame_to_use?"
cones: 
  - 
    x: 4.61497494178
    y: -0.123599280948
    z: -1.29992298909
    color: 2
    covariance: [0.0, 0.0, 0.0, 0.0]
    probability: 1.0
    id: 1
  - 
    x: 3.05122891915
    y: 1.75249763829
    z: -1.15253005529
    color: 2
    covariance: [0.0, 0.0, 0.0, 0.0]
    probability: 0.99951171875
    id: 1
  - 
    x: 4.57349316589
    y: -2.46838527044
    z: -1.33285874378
    color: 2
    covariance: [0.0, 0.0, 0.0, 0.0]
    probability: 0.999416708946
    id: 1
  - 
    x: 5.80768603498
    y: -1.14527723212
    z: -1.3697490401
    color: 1
    covariance: [0.0, 0.0, 0.0, 0.0]
    probability: 1.0
    id: 1
  - 
    x: 6.89597004259
    y: -2.08319952912
    z: -1.46076771767
    color: 1
    covariance: [0.0, 0.0, 0.0, 0.0]
    probability: 0.99951171875
    id: 1
  - 
    x: 5.17077838451
    y: 0.892676321395
    z: -1.30548874052
    color: 1
    covariance: [0.0, 0.0, 0.0, 0.0]
    probability: 0.99951171875
    id: 1
  - 
    x: 5.29716281653
    y: -2.50481928114
    z: -1.35649848312
    color: 1
    covariance: [0.0, 0.0, 0.0, 0.0]
    probability: 0.99951171875
    id: 1
  - 
    x: 7.21686686968
    y: 0.856875583993
    z: -1.46801274897
    color: 1
    covariance: [0.0, 0.0, 0.0, 0.0]
    probability: 0.99853515625
    id: 1
  - 
    x: 3.79213023425
    y: -2.32528738752
    z: -1.28510546045
    color: 1
    covariance: [0.0, 0.0, 0.0, 0.0]
    probability: 0.99783295393
    id: 1
  - 
    x: 3.59063448446
    y: 0.923508510282
    z: -1.23287906451
    color: 3
    covariance: [0.0, 0.0, 0.0, 0.0]
    probability: 0.999311864376
    id: 1
  - 
    x: 4.13485641877
    y: -1.06699015331
    z: -1.27599353731
    color: 3
    covariance: [0.0, 0.0, 0.0, 0.0]
    probability: 0.998794674873
    id: 1
---
header: 
  seq: 47
  stamp: 
    secs: 1674140040
    nsecs: 657941102
  frame_id: "dont_know_which_frame_to_use?"
cones: 
  - 
    x: 4.65429895242
    y: -0.121819095549
    z: -1.31088230345
    color: 2
    covariance: [0.0, 0.0, 0.0, 0.0]
    probability: 1.0
    id: 1
  - 
    x: 3.05573851633
    y: 1.75546435601
    z: -1.15432509048
    color: 2
    covariance: [0.0, 0.0, 0.0, 0.0]
    probability: 0.99951171875
    id: 1
  - 
    x: 4.56520643725
    y: -2.46449569898
    z: -1.33132603066
    color: 2
    covariance: [0.0, 0.0, 0.0, 0.0]
    probability: 0.999437570572
    id: 1
  - 
    x: 6.90166980791
    y: -2.0851607067
    z: -1.46201003431
    color: 1
    covariance: [0.0, 0.0, 0.0, 0.0]
    probability: 0.99951171875
    id: 1
  - 
    x: 5.31601205694
    y: -2.51318676375
    z: -1.36128905857
    color: 1
    covariance: [0.0, 0.0, 0.0, 0.0]
    probability: 0.99951171875
    id: 1
  - 
    x: 5.8269690305
    y: -1.14908375529
    z: -1.37381487483
    color: 1
    covariance: [0.0, 0.0, 0.0, 0.0]
    probability: 0.99951171875
    id: 1
  - 
    x: 5.19202262702
    y: 0.898275707124
    z: -1.31006716559
    color: 1
    covariance: [0.0, 0.0, 0.0, 0.0]
    probability: 0.99951171875
    id: 1
  - 
    x: 7.51660554492
    y: 0.895166419237
    z: -1.52374116194
    color: 1
    covariance: [0.0, 0.0, 0.0, 0.0]
    probability: 0.99853515625
    id: 1
  - 
    x: 3.80931826145
    y: -2.33555793588
    z: -1.2905121215
    color: 1
    covariance: [0.0, 0.0, 0.0, 0.0]
    probability: 0.99791508913
    id: 1
  - 
    x: 3.58200891532
    y: 0.920554664649
    z: -1.23036063481
    color: 3
    covariance: [0.0, 0.0, 0.0, 0.0]
    probability: 0.999268651009
    id: 1
  - 
    x: 4.09416358689
    y: -1.05650712364
    z: -1.26370342651
    color: 3
    covariance: [0.0, 0.0, 0.0, 0.0]
    probability: 0.9990234375
    id: 1
---
header: 
  seq: 51
  stamp: 
    secs: 1674140040
    nsecs: 886751890
  frame_id: "dont_know_which_frame_to_use?"
cones: 
  - 
    x: 4.61089764435
    y: -0.12203366615
    z: -1.29903867143
    color: 2
    covariance: [0.0, 0.0, 0.0, 0.0]
    probability: 1.0
    id: 1
  - 
    x: 3.05444505253
    y: 1.75397055934
    z: -1.15326969613
    color: 2
    covariance: [0.0, 0.0, 0.0, 0.0]
    probability: 0.99951171875
    id: 1
  - 
    x: 4.56467004757
    y: -2.46533685708
    z: -1.33110509932
    color: 2
    covariance: [0.0, 0.0, 0.0, 0.0]
    probability: 0.999403476715
    id: 1
  - 
    x: 6.92820466212
    y: -2.09350668612
    z: -1.46811169951
    color: 1
    covariance: [0.0, 0.0, 0.0, 0.0]
    probability: 0.99951171875
    id: 1
  - 
    x: 5.17402878911
    y: 0.893178087679
    z: -1.30598980504
    color: 1
    covariance: [0.0, 0.0, 0.0, 0.0]
    probability: 0.99951171875
    id: 1
  - 
    x: 5.79237479889
    y: -1.14232739441
    z: -1.36586043902
    color: 1
    covariance: [0.0, 0.0, 0.0, 0.0]
    probability: 0.99951171875
    id: 1
  - 
    x: 5.28133286403
    y: -2.49766607951
    z: -1.35239039096
    color: 1
    covariance: [0.0, 0.0, 0.0, 0.0]
    probability: 0.99951171875
    id: 1
  - 
    x: 7.43700809084
    y: 0.885694239027
    z: -1.50940588745
    color: 1
    covariance: [0.0, 0.0, 0.0, 0.0]
    probability: 0.9990234375
    id: 1
  - 
    x: 3.77401774894
    y: -2.31321230443
    z: -1.27920091204
    color: 1
    covariance: [0.0, 0.0, 0.0, 0.0]
    probability: 0.998246669769
    id: 1
  - 
    x: 3.65328037715
    y: 0.939399846765
    z: -1.25156993952
    color: 3
    covariance: [0.0, 0.0, 0.0, 0.0]
    probability: 0.999249994755
    id: 1
  - 
    x: 4.13852693343
    y: -1.06844090263
    z: -1.27757589168
    color: 3
    covariance: [0.0, 0.0, 0.0, 0.0]
    probability: 0.998844742775
    id: 1
---
header: 
  seq: 52
  stamp: 
    secs: 1674140041
    nsecs:  15892028
  frame_id: "dont_know_which_frame_to_use?"
cones: 
  - 
    x: 4.62158469177
    y: -0.12377105891
    z: -1.30202103917
    color: 2
    covariance: [0.0, 0.0, 0.0, 0.0]
    probability: 1.0
    id: 1
  - 
    x: 4.62385883869
    y: -2.49354799341
    z: -1.346028444
    color: 2
    covariance: [0.0, 0.0, 0.0, 0.0]
    probability: 0.999272048473
    id: 1
  - 
    x: 3.06371429265
    y: 1.75997648982
    z: -1.15703216781
    color: 2
    covariance: [0.0, 0.0, 0.0, 0.0]
    probability: 0.9990234375
    id: 1
  - 
    x: 6.95328982509
    y: -2.10057024977
    z: -1.47322489552
    color: 1
    covariance: [0.0, 0.0, 0.0, 0.0]
    probability: 0.99951171875
    id: 1
  - 
    x: 5.88240358182
    y: -1.15878608961
    z: -1.38729707932
    color: 1
    covariance: [0.0, 0.0, 0.0, 0.0]
    probability: 0.99951171875
    id: 1
  - 
    x: 5.10705272018
    y: 0.87969246803
    z: -1.28873063946
    color: 1
    covariance: [0.0, 0.0, 0.0, 0.0]
    probability: 0.99951171875
    id: 1
  - 
    x: 5.28258109722
    y: -2.49812028346
    z: -1.35263230387
    color: 1
    covariance: [0.0, 0.0, 0.0, 0.0]
    probability: 0.99951171875
    id: 1
  - 
    x: 7.10634726009
    y: 0.843134186333
    z: -1.44526485978
    color: 1
    covariance: [0.0, 0.0, 0.0, 0.0]
    probability: 0.99853515625
    id: 1
  - 
    x: 3.73535703646
    y: -2.29046000538
    z: -1.26686008967
    color: 1
    covariance: [0.0, 0.0, 0.0, 0.0]
    probability: 0.998303592205
    id: 1
  - 
    x: 3.56693602312
    y: 0.915969420275
    z: -1.22494340114
    color: 3
    covariance: [0.0, 0.0, 0.0, 0.0]
    probability: 0.999243497849
    id: 1
  - 
    x: 4.11854460165
    y: -1.06255664414
    z: -1.27099858173
    color: 3
    covariance: [0.0, 0.0, 0.0, 0.0]
    probability: 0.998839616776
    id: 1
---
header: 
  seq: 53
  stamp: 
    secs: 1674140041
    nsecs:  67821979
  frame_id: "dont_know_which_frame_to_use?"
cones: 
  - 
    x: 8.17093697004
    y: 4.49830474898
    z: 0.178202972004
    color: 2
    covariance: [0.0, 0.0, 0.0, 0.0]
    probability: 0.99951171875
    id: 1
  - 
    x: 13.5802126792
    y: 7.35869976415
    z: 0.890216198423
    color: 2
    covariance: [0.0, 0.0, 0.0, 0.0]
    probability: 0.9990234375
    id: 1
  - 
    x: 9.16718380477
    y: 0.077431942918
    z: 0.379312275725
    color: 2
    covariance: [0.0, 0.0, 0.0, 0.0]
    probability: 0.99755859375
    id: 1
  - 
    x: 18.5027058532
    y: 4.10567476765
    z: 1.54086929854
    color: 1
    covariance: [0.0, 0.0, 0.0, 0.0]
    probability: 1.0
    id: 1
---
header: 
  seq: 54
  stamp: 
    secs: 1674140041
    nsecs: 158586978
  frame_id: "dont_know_which_frame_to_use?"
cones: 
  - 
    x: 4.62738981227
    y: -0.123758588262
    z: -1.30312771135
    color: 2
    covariance: [0.0, 0.0, 0.0, 0.0]
    probability: 1.0
    id: 1
  - 
    x: 3.09899376289
    y: 1.77989103422
    z: -1.16911138595
    color: 2
    covariance: [0.0, 0.0, 0.0, 0.0]
    probability: 0.99951171875
    id: 1
  - 
    x: 4.57798970005
    y: -2.47226827107
    z: -1.33304005005
    color: 2
    covariance: [0.0, 0.0, 0.0, 0.0]
    probability: 0.999312460423
    id: 1
  - 
    x: 6.9306009766
    y: -2.09284568177
    z: -1.46964531833
    color: 1
    covariance: [0.0, 0.0, 0.0, 0.0]
    probability: 1.0
    id: 1
  - 
    x: 5.80566940563
    y: -1.14497333748
    z: -1.3679518431
    color: 1
    covariance: [0.0, 0.0, 0.0, 0.0]
    probability: 1.0
    id: 1
  - 
    x: 5.17999451314
    y: 0.894755961458
    z: -1.3078084462
    color: 1
    covariance: [0.0, 0.0, 0.0, 0.0]
    probability: 0.99951171875
    id: 1
  - 
    x: 5.32783060237
    y: -2.51864357833
    z: -1.36450253871
    color: 1
    covariance: [0.0, 0.0, 0.0, 0.0]
    probability: 0.99951171875
    id: 1
  - 
    x: 7.06123811966
    y: 0.83668721368
    z: -1.43685632724
    color: 1
    covariance: [0.0, 0.0, 0.0, 0.0]
    probability: 0.99853515625
    id: 1
  - 
    x: 3.78494528707
    y: -2.31986650869
    z: -1.2816239116
    color: 1
    covariance: [0.0, 0.0, 0.0, 0.0]
    probability: 0.998238861561
    id: 1
  - 
    x: 3.58995696787
    y: 0.923084302803
    z: -1.23284514211
    color: 3
    covariance: [0.0, 0.0, 0.0, 0.0]
